{"resourceType":"Location","id":"129a94c1-d965-400d-b4e8-5ede26758d2f","meta":{"profile":["http://hl7.org/fhir/us/core/StructureDefinition/us-core-location"]},"status":"active","name":"NEW ENGLAND BAPTIST HOSPITAL","telecom":[{"system":"phone","value":"6177545800"}],"address":{"line":["125 PARKER HILL AVENUE"],"city":"BOSTON","state":"MA","postalCode":"02120","country":"US"},"position":{"longitude":-71.020173,"latitude":42.33196},"managingOrganization":{"reference":"Organization/9a7149fa-49fc-3c87-b935-d29c55808717","display":"NEW ENGLAND BAPTIST HOSPITAL"}}
{"resourceType":"Location","id":"75f0eaf4-4cb1-4a36-9bdf-c2dc105ecee6","meta":{"profile":["http://hl7.org/fhir/us/core/StructureDefinition/us-core-location"]},"status":"active","name":"HOLBROOK HOSPITAL","telecom":[{"system":"phone","value":"781-767-4207"}],"address":{"line":["39 PLYMOUTH ST"],"city":"HOLBROOK","state":"MA","postalCode":"02343-1510","country":"US"},"position":{"longitude":-70.997861,"latitude":42.140346},"managingOrganization":{"reference":"Organization/502dd65a-e826-3bca-89bb-448b81ddbc15","display":"HOLBROOK HOSPITAL"}}
{"resourceType":"Location","id":"16842cf3-eeca-4ac4-96ff-9811319d2c06","meta":{"profile":["http://hl7.org/fhir/us/core/StructureDefinition/us-core-location"]},"status":"active","name":"SALEM SPECIALTY CLINIC","telecom":[{"system":"phone","value":"978-745-6868"}],"address":{"line":["528 LORING AVE"],"city":"SALEM","state":"MA","postalCode":"01970-4222","country":"US"},"position":{"longitude":-70.898204,"latitude":42.499248},"managingOrganization":{"reference":"Organization/c9396102-3807-30af-9547-a9f0d5d9bc76","display":"SALEM SPECIALTY CLINIC"}}
{"resourceType":"Location","id":"14764fc5-3b44-4783-b2a0-9f1ec7054d4c","meta":{"profile":["http://hl7.org/fhir/us/core/StructureDefinition/us-core-location"]},"status":"active","name":"PILGRIMS HOSPITAL","telecom":[{"system":"phone","value":"781-582-1087"}],"address":{"line":["28 WATERCOURSE PL"],"city":"PLYMOUTH","state":"MA","postalCode":"02360-3626","country":"US"},"position":{"longitude":-70.62403,"latitude":41.897892},"managingOrganization":{"reference":"Organization/0a3f4207-2ff4-38f0-ad42-3824f759fca3","display":"PILGRIMS HOSPITAL"}}
{"resourceType":"Location","id":"61c1126b-b63d-440b-996f-21464a53be3e","meta":{"profile":["http://hl7.org/fhir/us/core/StructureDefinition/us-core-location"]},"status":"active","name":"BETH ISRAEL DEACONESS HOSPITAL - NEEDHAM","telecom":[{"system":"phone","value":"7814533002"}],"address":{"line":["148 CHESTNUT STREET"],"city":"NEEDHAM","state":"MA","postalCode":"02494","country":"US"},"position":{"longitude":-71.242414,"latitude":42.281593},"managingOrganization":{"reference":"Organization/7fb56531-86bd-3e4a-8619-4df9942da309","display":"BETH ISRAEL DEACONESS HOSPITAL - NEEDHAM"}}
{"resourceType":"Location","id":"5977f2c0-d77c-40e2-900f-b5a4ee484218","meta":{"profile":["http://hl7.org/fhir/us/core/StructureDefinition/us-core-location"]},"status":"active","name":"WELLESLEY HILLS HOSPITAL","telecom":[{"system":"phone","value":"781-263-9091"}],"address":{"line":["422 WORCESTER ST"],"city":"WELLESLEY HILLS","state":"MA","postalCode":"02481-5341","country":"US"},"position":{"longitude":-71.28366899999997,"latitude":42.30539},"managingOrganization":{"reference":"Organization/db01560b-98d3-3e97-8cd2-bea9ef5967a7","display":"WELLESLEY HILLS HOSPITAL"}}
{"resourceType":"Location","id":"0bb542b6-9faa-48f2-82b2-68e27c775b9b","meta":{"profile":["http://hl7.org/fhir/us/core/StructureDefinition/us-core-location"]},"status":"active","name":"GOOD SAMARITAN MEDICAL CENTER","telecom":[{"system":"phone","value":"5084273000"}],"address":{"line":["235 NORTH PEARL STREET"],"city":"BROCKTON","state":"MA","postalCode":"02301","country":"US"},"position":{"longitude":-71.024638,"latitude":42.082543},"managingOrganization":{"reference":"Organization/226098a2-6a40-3588-b5bb-db56c3a30a04","display":"GOOD SAMARITAN MEDICAL CENTER"}}
{"resourceType":"Location","id":"9e7cccf2-7fde-4cbd-8d7b-c518344f844c","meta":{"profile":["http://hl7.org/fhir/us/core/StructureDefinition/us-core-location"]},"status":"active","name":"PAUL E GREENFIELD","telecom":[{"system":"phone","value":"617-846-7088"}],"address":{"line":["52 CREST AVE"],"city":"WINTHROP","state":"MA","postalCode":"02152-1064","country":"US"},"position":{"longitude":-70.970646,"latitude":42.375541},"managingOrganization":{"reference":"Organization/5e912b42-5e81-3ad7-81e3-1dd00ab5320a","display":"PAUL E GREENFIELD"}}
{"resourceType":"Location","id":"a1064fb1-4ed7-4da5-9a70-364f1bc083cd","meta":{"profile":["http://hl7.org/fhir/us/core/StructureDefinition/us-core-location"]},"status":"active","name":"NORTH SHORE MEDICAL CENTER -","telecom":[{"system":"phone","value":"9787411215"}],"address":{"line":["81 HIGHLAND AVENUE"],"city":"SALEM","state":"MA","postalCode":"01970","country":"US"},"position":{"longitude":-70.897502,"latitude":42.50128},"managingOrganization":{"reference":"Organization/4861d01f-019c-3dac-a153-8334e50919f9","display":"NORTH SHORE MEDICAL CENTER -"}}
{"resourceType":"Location","id":"df150f9f-8f59-46bf-ab32-921ece965b0b","meta":{"profile":["http://hl7.org/fhir/us/core/StructureDefinition/us-core-location"]},"status":"active","name":"SIGNATURE HEALTHCARE BROCKTON HOSPITAL","telecom":[{"system":"phone","value":"5089417000"}],"address":{"line":["680 CENTER STREET"],"city":"BROCKTON","state":"MA","postalCode":"02302","country":"US"},"position":{"longitude":-71.024638,"latitude":42.082543},"managingOrganization":{"reference":"Organization/c44f361c-2efb-3050-8f97-0354a12e2920","display":"SIGNATURE HEALTHCARE BROCKTON HOSPITAL"}}
{"resourceType":"Location","id":"ebd3e48b-2c5f-4698-94b2-025cdbb1ae19","meta":{"profile":["http://hl7.org/fhir/us/core/StructureDefinition/us-core-location"]},"status":"active","name":"MASSACHUSETTS EYE AND EAR INFIRMARY -","telecom":[{"system":"phone","value":"6175237900"}],"address":{"line":["243 CHARLES STREET"],"city":"BOSTON","state":"MA","postalCode":"02114","country":"US"},"position":{"longitude":-71.020173,"latitude":42.33196},"managingOrganization":{"reference":"Organization/44bef9d3-91c2-3005-93e0-ccf436348ff0","display":"MASSACHUSETTS EYE AND EAR INFIRMARY -"}}
{"resourceType":"Location","id":"8c2f70ed-3ab7-4cbd-8067-c2f038f93517","meta":{"profile":["http://hl7.org/fhir/us/core/StructureDefinition/us-core-location"]},"status":"active","name":"CONCENTRA URGENT CARE - EAST BOSTON","telecom":[{"system":"phone","value":"617-568-6500"}],"address":{"line":["1 HARBORSIDE DRIVE"],"city":"EAST BOSTON","state":"MA","postalCode":"2128","country":"US"},"position":{"longitude":-71.0256963,"latitude":42.3634497},"managingOrganization":{"reference":"Organization/0f7f97f6-693c-3de9-8190-85feaf4632e2","display":"CONCENTRA URGENT CARE - EAST BOSTON"}}
{"resourceType":"Location","id":"0d39e4cb-c4f0-4606-b6bf-15e4cfbfeecd","meta":{"profile":["http://hl7.org/fhir/us/core/StructureDefinition/us-core-location"]},"status":"active","name":"SHRINERS' HOSPITAL FOR CHILDREN - BOSTON, THE","telecom":[{"system":"phone","value":"6177223000"}],"address":{"line":["51 BLOSSOM STREET"],"city":"BOSTON","state":"MA","postalCode":"02114","country":"US"},"position":{"longitude":-71.020173,"latitude":42.33196},"managingOrganization":{"reference":"Organization/ff9863d3-3fa3-3861-900e-f00148f5d9c2","display":"SHRINERS' HOSPITAL FOR CHILDREN - BOSTON, THE"}}
{"resourceType":"Location","id":"84fad0c9-d3c6-4ed0-b3d8-e71a9d17979b","meta":{"profile":["http://hl7.org/fhir/us/core/StructureDefinition/us-core-location"]},"status":"active","name":"URGENT CARE MEDICAL CLINIC","telecom":[{"system":"phone","value":"508-583-0010"}],"address":{"line":["629 PLEASANT STREET"],"city":"BROCKTON","state":"MA","postalCode":"2301","country":"US"},"position":{"longitude":-71.04551,"latitude":42.0892313},"managingOrganization":{"reference":"Organization/0d1563c1-d56c-362e-9e3d-d74463ebbe0f","display":"URGENT CARE MEDICAL CLINIC"}}
{"resourceType":"Location","id":"3d5003ea-0408-4b1a-873d-418988cc5b05","meta":{"profile":["http://hl7.org/fhir/us/core/StructureDefinition/us-core-location"]},"status":"active","name":"FAMILY DOCTORS","telecom":[{"system":"phone","value":"781-596-4150"}],"address":{"line":["250 PARADISE ROAD"],"city":"SWAMPSCOTT","state":"MA","postalCode":"1907","country":"US"},"position":{"longitude":-70.9125322,"latitude":42.47636},"managingOrganization":{"reference":"Organization/9b5f23f1-c387-3a77-9359-752d26d7f997","display":"FAMILY DOCTORS"}}
